City,Cloudiness,Country,Date,Humidity,Lat,Lng,Max Temp,Wind Speed
Dwārka,23,IN,1586315915,81,22.24,68.97,78.26,7.52
Heimberg,0,CH,1586315916,93,46.79,7.6,46.0,1.12
Albany,90,US,1586315788,43,42.6,-73.97,55.4,5.82
Praia da Vitória,40,PT,1586315919,88,38.73,-27.07,62.6,17.16
Rodolfo Sánchez Taboada,80,MX,1586315920,80,31.72,-116.57,60.01,4.0
San Patricio,5,MX,1586315921,69,19.22,-104.7,78.8,8.03
Skjervøy,100,NO,1586315922,75,70.03,20.97,38.77,30.71
Avarua,75,CK,1586315924,78,-21.21,-159.78,82.4,5.82
Punta Arenas,75,CL,1586315725,58,-53.15,-70.92,59.0,11.41
Ostrovnoy,97,RU,1586315926,98,68.05,39.51,31.41,7.36
Vryburg,0,ZA,1586315927,28,-26.96,24.73,50.99,8.57
Nikolskoye,90,RU,1586315929,87,59.7,30.79,42.8,15.66
Saint-Philippe,48,RE,1586315930,78,-21.36,55.77,75.2,3.36
Longonjo,0,AO,1586315931,57,-12.91,15.25,61.2,2.33
Lebu,0,CL,1586315932,81,-37.62,-73.65,53.04,5.17
Saint Anthony,1,US,1586315506,41,45.02,-93.22,61.0,6.93
Mahébourg,40,MU,1586315935,69,-20.41,57.7,78.01,6.93
Ponta Delgada,75,PT,1586315936,93,37.73,-25.67,64.99,14.99
Marsh Harbour,10,BS,1586315937,79,26.54,-77.06,73.36,10.07
El Ejido,21,ES,1586315938,87,36.78,-2.81,57.0,2.24
Ejido,95,VE,1586315939,52,8.55,-71.24,70.29,2.15
Muhos,10,FI,1586315941,74,64.81,25.99,35.6,12.75
Rikitea,44,PF,1586315942,82,-23.12,-134.97,76.84,14.25
Ilulissat,34,GL,1586315943,67,69.22,-51.1,19.4,14.99
Bluff,99,NZ,1586315944,85,-46.6,168.33,51.01,5.99
Lázaro Cárdenas,0,MX,1586315946,80,17.96,-102.2,74.97,3.02
Samarai,54,PG,1586315947,69,-10.62,150.67,84.42,8.72
Kapaa,75,US,1586315939,65,22.08,-159.32,78.8,9.17
Kutum,44,SD,1586315949,16,14.2,24.67,68.07,3.36
Port Elizabeth,75,ZA,1586315529,58,-33.92,25.57,57.2,9.17
Sandwick,100,GB,1586315952,87,60.0,-1.25,46.4,20.8
Aromashevo,100,RU,1586315953,95,56.86,68.64,23.11,25.26
Saldanha,41,ZA,1586315954,71,-33.01,17.94,50.0,5.82
Puerto Ayora,73,EC,1586315955,91,-0.74,-90.35,80.01,1.01
Manokwari,38,ID,1586315957,77,-0.87,134.08,81.75,4.03
East London,21,ZA,1586315958,66,-33.02,27.91,55.4,11.41
Hermanus,35,ZA,1586315780,73,-34.42,19.23,51.01,1.01
Sabang,81,ID,1586315960,68,5.89,95.32,84.76,4.97
Coyhaique,0,CL,1586315961,81,-45.58,-72.07,48.2,8.05
Awjilah,7,LY,1586315962,80,29.11,21.29,55.96,8.16
Inyonga,97,TZ,1586315964,70,-6.72,32.07,64.04,3.24
Ushuaia,40,AR,1586315965,66,-54.8,-68.3,55.4,13.87
Salalah,0,OM,1586315781,50,17.02,54.09,75.2,4.7
Dikson,0,RU,1586315967,88,73.51,80.55,2.46,5.97
Ponta do Sol,40,PT,1586315969,88,32.67,-17.1,64.4,2.24
George Town,20,MY,1586315970,79,5.41,100.34,89.6,2.24
Petropavlovsk-Kamchatskiy,20,RU,1586315971,51,53.05,158.65,39.2,8.95
Bereket,100,TM,1586315972,58,39.24,55.52,42.26,15.28
Codrington,40,AU,1586315397,66,-38.27,141.97,60.89,14.41
Port Alfred,59,ZA,1586315975,69,-33.59,26.89,58.33,11.54
Jamestown,90,US,1586315854,93,42.1,-79.24,55.0,5.82
Tasiilaq,81,GL,1586315778,79,65.61,-37.64,26.6,10.29
Roald,73,NO,1586315978,75,62.58,6.13,48.2,27.51
Kavieng,98,PG,1586315979,71,-2.57,150.8,84.29,4.88
Nizhnevartovsk,75,RU,1586315980,59,60.93,76.55,35.6,20.13
Rach Gia,75,VN,1586315982,55,10.02,105.08,87.22,6.55
Busselton,0,AU,1586315983,20,-33.65,115.33,86.0,15.39
Coahuayana Viejo,0,MX,1586315984,58,18.73,-103.68,74.7,2.95
Katherine,40,AU,1586315985,49,-14.47,132.27,89.6,10.29
Mataura,85,NZ,1586315986,85,-46.19,168.86,51.01,5.99
New Norfolk,40,AU,1586315988,47,-42.78,147.06,61.0,11.41
Kununurra,86,AU,1586315989,27,-15.77,128.73,91.4,9.17
Chapais,1,CA,1586315864,53,49.78,-74.85,23.0,3.36
Airai,76,TL,1586315991,50,-8.93,125.41,73.17,2.71
Vaini,75,TO,1586315992,94,-21.2,-175.2,78.8,3.36
Acajutla,57,SV,1586315900,67,13.59,-89.83,78.01,10.94
Atuona,0,PF,1586315995,76,-9.8,-139.03,82.45,15.73
Balkanabat,100,TM,1586315996,60,39.51,54.37,42.15,6.42
Conakry,0,GN,1586315708,82,9.54,-13.68,80.42,3.51
Guadalajara,5,MX,1586315845,17,20.67,-103.33,78.01,4.7
Kavaratti,72,IN,1586316000,69,10.57,72.64,84.11,8.81
Vostok,100,RU,1586316001,69,46.49,135.88,31.98,11.5
Hobart,40,AU,1586315945,47,-42.88,147.33,61.0,11.41
Kruisfontein,27,ZA,1586316003,65,-34.0,24.73,51.84,8.48
Upernavik,54,GL,1586316004,92,72.79,-56.15,11.48,9.28
Sept-Îles,75,CA,1586315781,73,50.2,-66.38,26.01,4.7
Bredasdorp,33,ZA,1586316007,87,-34.53,20.04,42.8,6.93
Tommot,0,RU,1586316008,72,58.96,126.29,38.48,3.27
Terrace Bay,99,CA,1586316009,88,48.78,-87.1,34.63,2.68
Longyearbyen,37,SJ,1586316010,84,78.22,15.64,-5.67,6.6
Barrow,20,US,1586316011,77,71.29,-156.79,1.4,13.87
Vao,71,NC,1586316012,78,-22.67,167.48,75.49,16.89
Henties Bay,45,NA,1586316014,92,-22.12,14.28,57.0,1.01
Khatanga,100,RU,1586316015,94,71.97,102.5,13.82,8.59
Klaksvík,63,FO,1586316016,86,62.23,-6.59,37.4,8.05
Pudūr,43,IN,1586316017,53,13.0,79.15,85.84,4.9
Pangnirtung,0,CA,1586316019,73,66.15,-65.71,12.47,3.87
Bella Union,1,UY,1586316020,56,-30.28,-57.6,51.42,8.3
Savinka,31,RU,1586316021,82,50.08,47.1,32.88,11.61
Samsun Province,40,TR,1586316022,75,41.25,36.33,46.4,13.87
Deputatsky,81,RU,1586315462,90,69.3,139.9,26.06,26.51
Lábrea,56,BR,1586316024,94,-7.26,-64.8,74.73,3.85
Phalaborwa,100,ZA,1586316025,100,-23.94,31.14,64.4,12.75
Arraial do Cabo,90,BR,1586316027,94,-22.97,-42.03,75.2,4.7
Mombetsu,75,JP,1586316028,87,44.35,143.35,35.6,10.29
Parfen'yevo,96,RU,1586316029,92,58.48,43.41,32.31,5.57
Isangel,28,VU,1586316030,79,-19.55,169.27,78.98,18.9
Maltahöhe,0,NA,1586316031,26,-24.83,16.98,57.43,9.1
Saint Paul Harbor,90,US,1586316033,80,57.79,-152.41,35.6,27.51
Gboko,100,NG,1586316034,71,7.32,9.0,79.59,13.62
Pulandian,0,CN,1586316035,16,39.4,121.97,57.2,4.47
Norman Wells,75,CA,1586316036,38,65.28,-126.83,24.8,4.7
Rawson,0,AR,1586316037,50,-43.3,-65.1,59.47,10.0
Togur,100,RU,1586316039,72,58.36,82.83,38.39,17.92
Hilo,90,US,1586316040,83,19.73,-155.09,75.2,9.17
Sergiyevsk,91,RU,1586316041,83,53.94,51.16,31.5,10.63
Castro,84,BR,1586316042,71,-24.79,-50.01,59.7,5.86
Puro,32,PH,1586316043,68,12.48,123.38,83.21,4.85
Negombo,40,LK,1586316045,88,7.21,79.84,82.4,5.82
Labuhan,72,ID,1586316046,66,-6.88,112.21,85.15,4.88
Waingapu,100,ID,1586316047,69,-9.66,120.26,85.75,7.63
Tuktoyaktuk,90,CA,1586316048,78,69.45,-133.04,8.6,8.05
Xifeng,64,CN,1586316049,54,42.74,124.72,42.66,12.1
Bambous Virieux,40,MU,1586316050,69,-20.34,57.76,78.01,6.93
Shache,0,CN,1586315530,14,38.42,77.24,66.74,6.69
Cherskiy,100,RU,1586316053,96,68.75,161.3,20.75,6.33
Nome,1,US,1586316054,71,64.5,-165.41,6.8,4.7
Tautira,82,PF,1586316055,62,-17.73,-149.15,86.0,3.36
Katsuura,20,JP,1586316056,63,35.13,140.3,69.01,4.7
Pacific Grove,1,US,1586315801,66,36.62,-121.92,59.0,9.17
Narsaq,96,GL,1586316058,45,60.92,-46.05,26.6,2.24
São João da Barra,40,BR,1586316060,89,-21.64,-41.05,74.59,12.37
Malanville,76,BJ,1586316061,26,11.87,3.39,90.99,6.82
Mar del Plata,20,AR,1586316062,76,-38.0,-57.56,55.99,3.36
Chui,69,UY,1586316063,70,-33.7,-53.46,55.45,12.28
Mabaruma,75,GY,1586316064,86,8.2,-59.78,75.72,6.71
Gayéri,25,BF,1586316066,33,12.65,0.49,85.77,8.57
Bengkulu,86,ID,1586315771,60,-3.8,102.27,86.41,5.84
Basud,28,PH,1586316068,63,14.06,122.96,84.78,5.61
Dudinka,100,RU,1586316069,80,69.41,86.18,35.6,15.66
Harper,60,LR,1586316070,85,4.38,-7.72,80.17,3.65
Ayagoz,100,KZ,1586316071,69,47.97,80.44,43.21,5.46
Léo,96,BF,1586316072,44,11.1,-2.1,86.02,9.8
Torbay,20,CA,1586316074,86,47.67,-52.73,28.99,13.87
Cape Town,89,ZA,1586316033,66,-33.93,18.42,55.99,5.82
Aasiaat,91,GL,1586316076,91,68.71,-52.87,13.82,9.01
Nicoya,6,CR,1586316077,87,10.15,-85.45,72.0,25.99
Rocha,62,UY,1586316078,75,-34.48,-54.33,52.29,8.19
Iğdır,20,TR,1586316080,69,39.92,44.05,33.8,2.24
Rosarito,75,MX,1586316081,82,32.33,-117.03,57.2,12.75
Ribeira Grande,37,PT,1586316082,87,38.52,-28.7,62.31,20.15
Hong Kong,20,HK,1586315899,56,22.29,114.16,73.4,9.17
Faya,0,SA,1586316084,67,18.39,42.45,62.6,3.74
Butaritari,88,KI,1586316085,78,3.07,172.79,83.68,12.62
Cortez,1,US,1586316086,33,37.35,-108.59,48.99,3.36
Fortuna,90,US,1586316088,76,40.6,-124.16,52.0,5.82
Bondo,48,CD,1586316089,75,3.81,23.69,71.71,2.26
Jönköping,82,SE,1586315827,86,57.78,14.16,37.4,8.05
Yellowknife,75,CA,1586315939,63,62.46,-114.35,28.4,16.11
Estelle,1,US,1586316092,100,29.85,-90.11,77.0,6.93
Balikpapan,20,ID,1586315962,83,-1.27,116.83,82.4,5.82
Kisesa,41,TZ,1586316095,63,-3.08,34.15,61.14,4.45
Fort-Shevchenko,30,KZ,1586316096,69,44.51,50.26,40.68,12.95
Sitka,90,US,1586316097,69,57.05,-135.33,39.2,13.87
Sulangan,25,PH,1586316098,70,11.14,123.72,83.5,4.85
Cockburn Town,0,TC,1586316099,71,21.46,-71.14,76.62,12.82
Lompoc,90,US,1586316003,81,34.64,-120.46,51.8,3.69
Qaanaaq,57,GL,1586316101,70,77.48,-69.36,10.72,4.83
Yaan,100,NG,1586316103,71,7.38,8.57,79.27,9.4
Faanui,70,PF,1586316104,76,-16.48,-151.75,82.69,16.31
Sliven,5,BG,1586316105,80,42.69,26.33,30.2,4.7
Ladário,45,BR,1586316106,78,-19.0,-57.6,71.47,2.77
Kumul,0,CN,1586316107,16,42.8,93.45,69.49,5.12
Kaitangata,65,NZ,1586316109,68,-46.28,169.85,61.0,7.76
Pirapemas,85,BR,1586316110,96,-3.73,-44.22,75.69,2.17
Dzerzhinskoye,1,RU,1586316111,73,56.83,95.23,45.32,7.27
Severo-Kuril'sk,99,RU,1586316113,92,50.68,156.12,33.37,29.06
Shimoda,58,JP,1586316114,39,34.67,138.95,68.0,17.22
Chokurdakh,100,RU,1586316115,94,70.63,147.92,6.75,13.02
Batagay,100,RU,1586316116,87,67.63,134.63,33.15,5.19
Hasaki,75,JP,1586316117,52,35.73,140.83,69.01,6.93
Raudeberg,98,NO,1586316119,87,61.99,5.14,45.0,27.51
Jacareacanga,94,BR,1586316120,93,-6.22,-57.75,75.24,2.04
San Onofre,96,CO,1586316121,77,9.74,-75.53,81.45,9.86
Aklavik,75,CA,1586316122,61,68.22,-135.01,12.2,8.05
Carnarvon,1,AU,1586316123,61,-24.87,113.63,82.4,11.41
Cabo San Lucas,40,MX,1586316124,64,22.89,-109.91,72.0,9.91
Tiksi,98,RU,1586316125,94,71.69,128.87,14.2,7.81
Russell,90,US,1586316127,93,32.35,-85.2,66.2,4.5
Guangzhou,90,CN,1586315926,56,23.12,113.25,75.99,2.24
La Seyne-sur-Mer,0,FR,1586316129,57,43.1,5.88,51.01,5.82
Irituia,100,BR,1586316130,95,-1.77,-47.44,75.87,3.71
Hay River,75,CA,1586316131,79,60.82,-115.8,23.0,14.99
Ati,100,TD,1586316132,13,13.22,18.34,81.55,7.2
Madingou,100,CG,1586316133,89,-4.15,13.55,76.21,1.25
Tiarei,78,PF,1586316135,62,-17.53,-149.33,86.0,3.36
Svobodnyy,53,RU,1586316136,58,51.4,128.13,40.71,12.55
Gornyak,100,RU,1586316137,51,50.99,81.47,44.6,8.93
Panjāb,16,AF,1586316020,28,34.39,67.02,31.6,0.49
Dolores,21,AR,1586316139,86,-36.31,-57.68,45.07,5.08
Kirakira,25,SB,1586316140,79,-10.45,161.92,82.9,4.92
Kontagora,54,NG,1586316142,51,10.4,5.47,82.67,11.52
Colares,75,PT,1586316143,100,38.8,-9.45,60.01,7.54
Calama,0,CL,1586316144,41,-22.47,-68.93,57.2,11.41
Avera,1,US,1586316145,82,33.19,-82.53,71.6,4.7
Bethel,75,US,1586316146,46,41.37,-73.41,55.0,5.3
Verāval,0,IN,1586316148,67,20.9,70.37,80.11,8.63
Ambatondrazaka,82,MG,1586316149,69,-17.83,48.42,66.4,1.5
Emporia,90,US,1586316150,68,38.4,-96.18,66.99,6.93
Talnakh,100,RU,1586316151,80,69.49,88.4,35.6,15.66
Provideniya,33,RU,1586316152,61,64.38,-173.3,14.0,4.47
Vitória da Conquista,36,BR,1586316154,77,-14.87,-40.84,66.69,2.1
Malanje,16,AO,1586316155,67,-9.54,16.34,62.15,1.72
Tokur,0,RU,1586316156,65,53.13,132.9,32.18,4.36
Cidreira,31,BR,1586316157,65,-30.18,-50.21,60.82,13.22
Muros,90,ES,1586316158,100,42.78,-9.06,60.01,4.7
Palmer,90,US,1586316160,46,42.16,-72.33,54.0,8.05
Neuquén,0,AR,1586315988,50,-38.95,-68.06,55.4,3.36
Alta Floresta,100,BR,1586316162,87,-9.88,-56.09,73.26,1.59
Medvedovskaya,0,RU,1586316163,37,45.45,39.03,36.0,11.18
Slave Lake,75,CA,1586316164,92,55.28,-114.77,28.4,19.46
Mil'kovo,100,RU,1586316165,85,54.72,158.62,31.3,5.48
Marovoay,20,MG,1586316166,94,-16.1,46.63,75.2,3.36
Itacoatiara,99,BR,1586316168,91,-3.14,-58.44,76.89,1.23
Koumac,18,NC,1586316169,66,-20.57,164.28,82.44,10.38
Thompson,20,CA,1586316170,85,55.74,-97.86,23.0,4.03
Talcahuano,0,CL,1586316171,87,-36.72,-73.12,50.0,2.24
Maragogi,1,BR,1586316172,77,-9.01,-35.22,78.85,4.34
Nadvoitsy,97,RU,1586316174,86,63.87,34.32,34.81,9.26
Erzin,75,TR,1586316175,77,36.96,36.2,61.0,10.29
Diourbel,0,SN,1586316176,65,14.66,-16.39,80.6,4.7
Lattes,5,FR,1586316177,81,43.57,3.9,48.2,5.82
Ozernovskiy,9,RU,1586316178,80,51.5,156.52,36.45,13.44
Punta Gorda,1,US,1586315915,78,26.93,-82.05,75.99,5.84
Pevek,100,RU,1586316180,93,69.7,170.31,7.48,10.22
Lagoa,0,PT,1586316182,87,39.05,-27.98,62.11,21.54
Ratnagiri,0,IN,1586316183,62,16.98,73.3,81.82,4.41
Le Port,67,RE,1586316184,94,-20.94,55.29,75.2,11.41
Raja,61,SS,1586316185,37,8.46,25.68,79.39,5.28
Xinqing,100,CN,1586316186,62,48.23,129.5,38.62,10.83
Timrå,100,SE,1586316187,92,62.49,17.33,37.99,2.24
Hamilton,1,US,1586316004,64,39.18,-84.53,71.01,10.29
Amga,94,RU,1586316190,91,60.9,131.96,35.26,6.53
Puerto Peñasco,0,MX,1586315906,47,31.32,-113.53,68.27,11.14
Marsabit,37,KE,1586316192,59,2.33,37.99,67.86,19.39
Bathsheba,40,BB,1586316193,74,13.22,-59.52,78.8,13.87
Goderich,100,CA,1586316194,86,43.75,-81.72,46.99,8.43
Mount Gambier,90,AU,1586316195,87,-37.83,140.77,60.8,14.99
Bubaque,0,GW,1586316196,75,11.28,-15.83,77.88,11.65
Aswān,0,EG,1586316198,29,24.09,32.91,65.97,12.44
Umm Kaddadah,4,SD,1586316199,15,13.6,26.69,76.62,5.03
Northam,100,GB,1586316200,76,51.03,-4.22,52.0,1.97
Atar,0,MR,1586316201,19,20.52,-13.05,76.05,8.08
Temir,69,KZ,1586316202,72,49.14,57.13,33.22,14.2
Irauçuba,25,BR,1586316021,88,-3.75,-39.78,73.8,1.28
Talagang,0,PK,1586316204,51,32.93,72.42,65.86,3.06
Sinfra,75,CI,1586316205,94,6.62,-5.92,73.4,4.7
Esperance,73,AU,1586316207,39,-33.87,121.9,78.8,18.34
Salinas,1,US,1586316174,71,36.68,-121.66,59.0,9.17
Garden City,75,US,1586316209,93,42.33,-83.33,59.0,4.7
Dongsheng,58,CN,1586316210,17,39.82,109.98,59.59,10.76
Garoowe,57,SO,1586316211,71,8.41,48.48,72.61,8.19
Lac du Bonnet,17,CA,1586316212,67,50.25,-96.06,37.99,2.77
Sur,1,OM,1586316213,41,22.57,59.53,80.6,5.75
Faaborg,90,DK,1586316215,70,55.1,10.24,42.8,4.7
Pangkalanbuun,30,ID,1586316183,58,-2.68,111.62,88.29,4.25
Clyde River,1,CA,1586316217,61,70.47,-68.59,12.2,17.22
Bacolod City,35,PH,1586316218,53,10.67,122.95,89.19,6.49
Zaida,0,PK,1586316219,72,34.06,72.47,62.6,10.29
Cururupu,94,BR,1586316220,91,-1.83,-44.87,78.58,5.91
Alice Springs,90,AU,1586316011,33,-23.7,133.88,73.4,10.29
Boden,100,SE,1586316222,65,65.83,21.69,41.0,11.41
Kalush,0,UA,1586316162,57,49.01,24.37,42.91,2.77
Sørland,75,NO,1586316225,93,67.67,12.69,39.2,11.41
Edd,18,ER,1586316226,26,13.93,41.69,86.67,13.78
Oyama,75,JP,1586316227,51,36.3,139.8,71.01,9.17
Tulun,0,RU,1586316228,48,54.56,100.58,46.0,10.47
Manga,98,BF,1586316229,29,11.66,-1.07,87.82,2.93
Guane,4,CU,1586316230,80,22.2,-84.09,76.35,1.48
Bambanglipuro,96,ID,1586316232,66,-7.95,110.28,84.42,4.54
Innisfail,41,AU,1586316233,59,-17.53,146.03,81.0,7.0
Lavrentiya,85,RU,1586316234,91,65.58,-171.0,9.88,6.26
Porto Belo,75,BR,1586316235,64,-27.16,-48.55,68.0,6.93
Hithadhoo,100,MV,1586316066,72,-0.6,73.08,84.74,10.16
Kinablangan,35,PH,1586316237,60,7.69,126.55,86.38,10.65
Puri,75,IN,1586316238,70,19.8,85.85,84.2,12.97
Maridi,31,SS,1586316240,53,4.92,29.47,72.48,2.37
Arman',0,RU,1586316241,87,59.7,150.17,26.94,2.84
Mareeba,53,AU,1586316242,51,-17.0,145.43,86.0,14.99
Leningradskiy,95,RU,1586316243,89,69.38,178.42,10.49,7.74
Nizhneudinsk,0,RU,1586316244,51,54.91,99.03,47.26,7.05
Nhulunbuy,75,AU,1586316245,83,-12.23,136.77,80.6,6.93
Acapulco de Juárez,5,MX,1586316174,88,16.86,-99.89,78.8,1.32
Cayenne,90,GF,1586316248,78,4.93,-52.33,82.4,8.05
Fare,61,PF,1586316249,77,-16.7,-151.02,82.98,14.67
Codó,99,BR,1586316250,95,-4.46,-43.89,75.31,2.19
Lithakia,20,GR,1586316251,65,37.72,20.83,50.0,6.93
Kropotkin,0,RU,1586316252,70,45.44,40.58,33.12,11.39
Assiut,0,EG,1586316253,51,27.18,31.18,59.0,9.17
Yola,64,NG,1586316254,49,9.2,12.48,85.42,3.06
Luganville,29,VU,1586316256,72,-15.53,167.17,84.58,9.53
Alta,66,NO,1586316257,55,69.97,23.27,39.2,43.62
Mazyr,0,BY,1586316258,65,52.05,29.25,44.49,10.09
Souillac,40,MU,1586316259,69,-20.52,57.52,78.01,6.93
Houma,1,US,1586316260,94,29.6,-90.72,77.0,4.7
Helong,100,CN,1586316261,49,42.54,129.0,42.39,12.82
Lorengau,89,PG,1586316262,79,-2.02,147.27,80.92,10.54
Raglan,100,NZ,1586316263,84,-37.8,174.88,66.99,5.99
Lata,75,PT,1586316265,100,40.16,-8.33,57.99,1.12
Balakhta,30,RU,1586316266,74,55.38,91.6,44.71,5.01
Denpasar,20,ID,1586316083,89,-8.65,115.22,86.0,4.7
Muhafazat Lahij,53,YE,1586316268,57,13.17,44.58,74.39,5.37
Hammond,90,US,1586316107,88,41.58,-87.5,73.4,8.05
Doha,0,QA,1586316164,47,25.29,51.53,82.0,3.36
Jackson,1,US,1586316035,45,42.42,-122.83,64.4,8.05
Port Shepstone,1,ZA,1586316273,59,-30.74,30.45,58.8,11.05
Luxor,0,EG,1586316274,42,25.7,32.64,68.0,9.17
Tiznit Province,12,MA,1586316275,40,29.58,-9.5,66.74,1.63
Monte Escobedo,37,MX,1586316276,14,22.3,-103.58,58.06,5.75
Xining,0,CN,1586316277,19,36.62,101.77,47.57,3.18
Hurghada,0,EG,1586316278,42,27.26,33.81,64.4,9.17
Province of Trapani,5,IT,1586316279,87,37.83,12.67,53.01,4.7
Wajir,38,KE,1586316280,64,1.75,40.06,78.67,10.83
Fort Nelson,75,CA,1586316282,43,58.81,-122.7,35.6,3.36
Cedar City,1,US,1586316059,29,37.68,-113.06,51.8,5.82
Oranjestad,40,AW,1586316284,83,12.52,-70.03,80.6,19.46
Palu,53,ID,1586316285,52,-0.89,119.87,89.08,3.94
Vila Velha,75,BR,1586316286,88,-20.33,-40.29,78.8,10.29
Hinton,49,CA,1586316287,81,53.4,-117.59,21.42,5.79
Sechura,37,PE,1586316289,75,-5.56,-80.82,75.16,11.61
Mayor Pablo Lagerenza,99,PY,1586316290,62,-19.93,-60.77,75.72,4.97
Biasca,20,CH,1586316291,75,46.36,8.97,52.0,1.14
Buraidah,0,SA,1586316292,83,26.33,43.98,69.8,5.82
Lüderitz,0,NA,1586316293,66,-26.65,15.16,53.6,1.12
Cabedelo,20,BR,1586316294,94,-6.98,-34.83,77.0,1.12
Saskylakh,92,RU,1586316296,93,71.92,114.08,6.42,6.62
Blagoveshchensk,100,RU,1586316297,31,50.27,127.53,46.4,15.66
Batagay-Alyta,52,RU,1586316298,76,67.8,130.41,31.21,5.57
Maceió,10,BR,1586316299,100,-9.67,-35.74,75.2,2.24
Bilma,81,NE,1586316300,17,18.69,12.92,76.03,18.88
Xixiang,0,CN,1586316301,33,35.16,112.86,69.21,8.95
Palimbang,86,PH,1586316186,65,6.21,124.19,84.81,5.21
Singkang,20,MY,1586316304,70,2.1,102.8,87.8,6.93
Ahipara,44,NZ,1586316305,77,-35.17,173.17,66.96,9.95
Los Llanos de Aridane,6,ES,1586316306,77,28.66,-17.92,66.2,6.93
Farmington,1,US,1586316307,20,36.73,-108.22,55.99,4.7
Tuatapere,100,NZ,1586316308,85,-46.13,167.68,51.01,5.99
Sovetskaya,0,RU,1586316309,4,44.78,41.17,25.0,8.01
Syumsi,0,RU,1586316310,94,57.11,51.61,25.57,3.69
Tranås,100,SE,1586316311,80,58.04,14.98,41.0,5.82
Waipawa,98,NZ,1586316313,72,-41.41,175.52,64.0,8.05
Eureka,90,US,1586316314,81,40.8,-124.16,52.0,3.36
Omaha,1,US,1586316270,45,41.26,-95.94,69.8,3.0
Natchez,40,US,1586316316,94,31.56,-91.4,73.4,4.7
Vila Franca do Campo,75,PT,1586316317,93,37.72,-25.43,64.99,14.99
Virginia Beach,75,US,1586316042,87,36.85,-75.98,64.4,5.82
Abū Zabad,13,SD,1586316319,23,12.35,29.25,78.67,4.21
Hualmay,87,PE,1586316321,80,-11.1,-77.61,71.87,3.78
Solenzo,71,BF,1586316322,17,12.18,-4.08,89.13,5.01
Balutakay,20,PH,1586316323,52,6.72,125.35,91.4,10.29
San Quintín,59,MX,1586316324,76,30.48,-115.95,61.0,5.88
Norwell,1,US,1586316325,57,42.16,-70.79,52.0,4.7
The Valley,40,AI,1586316326,83,18.22,-63.06,80.01,6.93
Sühbaatar,6,MN,1586316327,36,50.23,106.21,49.42,4.12
Dakar,0,SN,1586316317,88,14.69,-17.44,77.0,16.11
Vestmannaeyjar,82,IS,1586316329,84,63.44,-20.27,35.87,5.01
Gao,60,ML,1586316331,12,16.64,1.64,80.02,8.19
Sosnovo-Ozerskoye,0,RU,1586316332,37,52.52,111.54,43.52,7.76
Nadym,100,RU,1586316333,98,65.53,72.52,34.12,21.59
Yangi Marg`ilon,75,UZ,1586316334,71,40.43,71.72,50.0,4.7
Quesnel,1,CA,1586316335,37,53.0,-122.5,37.4,4.7
Takaungu,20,KE,1586316336,94,-3.68,39.86,78.8,3.36
Touros,20,BR,1586316337,94,-5.2,-35.46,77.0,4.7
Tanout,2,NE,1586316339,12,14.97,8.89,82.8,9.84
Mahbūbābād,65,IN,1586316340,44,17.62,80.02,89.47,6.91
Marsá Maţrūḩ,19,EG,1586316341,87,31.35,27.25,50.0,8.23
Nantucket,1,US,1586316342,87,41.28,-70.1,48.2,8.05
Mitchell,1,US,1586316343,62,43.71,-98.03,57.2,2.71
Thinadhoo,92,MV,1586316344,68,0.53,72.93,84.87,8.32
Daru,83,PG,1586316346,68,-9.08,143.21,84.99,9.42
Guymon,1,US,1586316347,22,36.68,-101.48,69.8,5.82
Elizabeth City,1,US,1586316075,72,36.29,-76.25,64.4,4.7
Lipin Bor,70,RU,1586316349,88,60.26,37.98,33.57,6.46
Mandello del Lario,0,IT,1586316350,87,45.92,9.32,55.0,1.12
Camaná,62,PE,1586316351,75,-16.62,-72.71,73.89,4.72
Hofn,0,IS,1586316352,86,64.25,-15.21,29.84,12.66
Solnechnyy,99,RU,1586316354,70,50.72,136.63,35.44,7.94
Kahului,40,US,1586316121,65,20.89,-156.47,80.6,9.17
Grindavik,10,IS,1586316356,86,63.84,-22.43,30.2,9.17
San Andrés,20,CO,1586316357,78,12.58,-81.7,82.4,10.29
Duvan,52,RU,1586316358,89,55.7,57.9,19.96,12.01
Guerrero Negro,0,MX,1586316122,66,27.98,-114.06,62.02,10.8
Zhangjiakou,16,CN,1586316361,30,40.81,114.88,51.13,6.96
Ko Samui,20,TH,1586316163,66,9.54,99.94,89.6,9.17
Bagdarin,0,RU,1586316363,42,54.43,113.6,42.48,2.95
Vila do Maio,0,CV,1586316364,60,15.13,-23.22,75.2,10.29
Bad Langensalza,1,DE,1586316365,87,51.1,10.65,48.0,3.36
Liwale,87,TZ,1586316367,85,-9.77,37.93,67.64,0.87
Kagoro,99,NG,1586316368,46,9.6,8.38,76.89,2.93
Oussouye,0,SN,1586316369,94,12.48,-16.55,73.4,4.7
Alofi,75,NU,1586316370,83,-19.06,-169.92,84.2,8.05
Montepuez,50,MZ,1586316371,86,-13.13,39.0,67.62,2.51
Tobermory,100,CA,1586316373,91,45.25,-81.67,39.0,4.0
Geraldton,0,AU,1586316374,42,-28.77,114.6,84.2,5.82
Ambovombe,9,MG,1586316375,77,-25.17,46.08,72.14,5.88
Vetrişoaia,0,RO,1586316376,55,46.43,28.21,44.62,1.79
Metro,74,ID,1586316377,78,-5.11,105.31,82.24,7.2
Maniitsoq,97,GL,1586316378,87,65.42,-52.9,21.56,7.9
Nishihara,40,JP,1586316379,53,26.18,127.76,73.4,11.41
Ust-Kuyga,99,RU,1586316381,93,70.02,135.6,26.04,23.96
Davenport,40,US,1586316382,77,41.52,-90.58,66.2,9.17
Caconda,0,AO,1586316383,58,-13.73,15.07,57.6,2.17
Husavik,90,IS,1586316384,86,66.04,-17.34,28.4,26.4
Luwingu,100,ZM,1586316385,65,-10.26,29.93,62.85,2.75
Marzuq,73,YE,1586316387,19,14.4,46.47,69.89,2.62
Ibrā’,10,OM,1586316388,24,22.69,58.53,79.3,1.81
Menongue,5,AO,1586316389,56,-14.66,17.69,60.91,1.66
Cuiluan,100,CN,1586316390,67,47.72,128.65,38.1,12.15
Mizdah,0,LY,1586316391,71,31.45,12.98,49.24,5.46
Nyūzen,40,JP,1586316392,45,36.93,137.5,66.99,6.93
College,20,US,1586316393,35,64.86,-147.8,30.2,6.93
Bandarbeyla,9,SO,1586316395,65,9.49,50.81,79.11,2.91
San Cristobal,100,VE,1586316396,64,7.77,-72.22,70.12,1.92
Abu Samrah,0,SY,1586316397,74,35.3,37.18,49.98,6.8
Tsimmerbude,22,RU,1586316398,81,54.67,20.13,32.0,2.24
Kłobuck,0,PL,1586316399,74,50.9,18.94,43.0,4.7
Portland,20,US,1586316364,54,45.52,-122.68,57.2,9.17
Kholmogory,40,RU,1586316402,86,64.22,41.66,30.2,8.95
Malmyzh,51,RU,1586316403,88,56.52,50.68,29.05,4.7
Tocopilla,38,CL,1586316404,49,-22.09,-70.2,73.11,1.41
Sarangani,93,PH,1586316405,72,5.4,125.46,82.17,2.21
Traverse City,90,US,1586316407,93,44.76,-85.62,50.0,3.36
Sanguéya,1,GN,1586316408,92,10.7,-14.37,75.24,2.53
Qrendi,20,MT,1586316409,76,35.83,14.46,55.99,5.82
Tianpeng,44,CN,1586316410,48,30.99,103.94,75.0,4.47
Dolgoye,0,RU,1586316411,64,52.8,37.22,41.63,17.09
Saint Andrews,75,US,1586316412,64,34.05,-81.13,73.4,12.75
Srednekolymsk,100,RU,1586316414,96,67.45,153.68,27.3,15.9
Pucallpa,99,PE,1586316415,80,-8.38,-74.55,75.04,2.17
Peterhead,100,GB,1586316416,61,57.51,-1.8,46.99,11.41
Luwero,21,UG,1586316417,71,0.85,32.47,64.71,1.83
Richards Bay,96,ZA,1586316418,74,-28.78,32.04,65.82,13.04
St. George's,20,GD,1586316420,88,12.06,-61.75,78.8,6.93
Sobolevo,26,RU,1586316421,77,54.43,31.9,44.04,14.2
Saint-Pierre,29,RE,1586316422,78,-21.34,55.48,75.2,3.36
Bam,10,IR,1586316423,17,29.11,58.36,72.77,4.32
Vero Beach,1,US,1586316424,83,27.64,-80.4,75.2,9.17
Constitución,0,CL,1586316425,62,-35.33,-72.42,54.72,1.7
Erenhot,38,CN,1586316426,33,43.65,111.98,43.34,17.94
Shingū,20,JP,1586316427,63,33.73,135.98,62.6,9.17
Stratoni,0,GR,1586316429,61,40.51,23.82,43.0,9.46
Juan Aldama,100,MX,1586316430,10,24.29,-103.39,70.16,16.33
Tena,100,EC,1586316431,67,-0.98,-77.82,72.12,4.12
Mossamedes,0,AO,1586316432,61,-15.2,12.15,72.23,8.52
Sorong,15,ID,1586316433,70,-0.88,131.25,86.32,4.54
Tete,20,MZ,1586316434,78,-16.16,33.59,73.4,3.36
Mitú,100,CO,1586316436,90,1.2,-70.17,75.33,0.94
Bloemfontein,0,ZA,1586316437,35,-29.12,26.21,37.4,2.24
Havøysund,100,NO,1586316438,94,71.0,24.66,37.4,65.54
La Palma,90,US,1586316222,81,33.85,-118.05,55.4,4.7
Salihorsk,0,BY,1586316440,79,52.79,27.54,42.58,8.9
Puerto Escondido,18,MX,1586316364,68,15.85,-97.07,81.43,3.42
Emirdağ,100,TR,1586316442,47,39.02,31.15,39.0,9.06
Simao,0,CN,1586316444,14,22.79,100.97,82.09,5.88
Korla,0,CN,1586316445,85,41.76,86.15,63.0,7.09
Wamba,96,NG,1586316446,62,8.93,8.6,78.46,2.3
Tikrit,99,IQ,1586316447,39,34.61,43.68,67.51,6.49
Poya,32,NC,1586316448,72,-21.35,165.15,80.38,13.02
Itarema,61,BR,1586316449,90,-2.92,-39.92,77.63,7.31
Tarnogskiy Gorodok,100,RU,1586316450,97,60.5,43.58,31.15,5.55
Vila,75,PT,1586316452,93,42.03,-8.16,60.01,5.82
Woodward,1,US,1586316453,34,36.43,-99.39,72.0,6.93
West Bay,0,KY,1586316454,79,19.37,-81.42,81.0,5.77
Huarmey,99,PE,1586316455,75,-10.07,-78.15,74.41,4.45
Limbang,75,MY,1586316456,66,4.75,115.0,87.8,5.82
Ankazoabo,0,MG,1586316458,81,-22.28,44.52,65.25,2.13
Sisimiut,31,GL,1586316459,89,66.94,-53.67,18.82,8.99
Ormara,96,PK,1586316460,43,25.21,64.64,80.73,4.27
Tabou,91,CI,1586316461,88,4.42,-7.35,79.25,4.18
Jalu,1,LY,1586316462,77,29.03,21.55,56.48,8.63
Kazanskaya,0,RU,1586316463,70,45.41,40.44,32.88,11.92
Najrān,0,SA,1586316464,28,17.49,44.13,69.8,4.7
Rome,90,US,1586316465,75,43.21,-75.46,46.99,6.93
Likasi,99,CD,1586316467,65,-10.98,26.73,61.57,2.66
Vanavara,0,RU,1586316468,72,60.34,102.28,43.07,4.29
Terney,100,RU,1586316469,90,45.05,136.61,34.21,17.81
Limpio,32,PY,1586316470,82,-25.18,-57.53,60.8,6.93
Emba,14,KZ,1586316471,72,48.83,58.14,33.12,15.5
Tshane,0,BW,1586316472,23,-24.02,21.87,57.7,6.6
Torrington,1,US,1586316474,49,41.8,-73.12,55.0,2.59
Tricase,5,IT,1586316475,93,39.93,18.36,48.2,2.24
Mankono,71,CI,1586316476,77,8.06,-6.19,76.71,5.68
Saint George,1,US,1586316477,34,37.1,-113.58,66.0,8.05
Ancud,0,CL,1586316478,81,-41.87,-73.82,51.8,8.05
Yarensk,91,RU,1586316479,95,62.17,49.09,21.79,6.13
Necochea,1,AR,1586316251,69,-38.55,-58.74,54.0,4.0
Mitsamiouli,17,KM,1586316482,68,-11.38,43.28,83.91,9.01
Vaitape,71,PF,1586316483,76,-16.52,-151.75,83.53,16.35
Nanortalik,100,GL,1586316484,87,60.14,-45.24,29.53,10.18
Pelotas,6,BR,1586316485,73,-31.77,-52.34,52.54,9.01
Iqaluit,5,CA,1586316486,64,63.75,-68.51,0.0,6.93
Finnsnes,90,NO,1586316488,89,69.23,17.98,35.01,21.92
Āreka,62,ET,1586316489,44,7.07,37.7,62.15,1.66
Dabakala,99,CI,1586316490,78,8.37,-4.43,78.15,4.52
Belize,37,BZ,1586316491,89,17.25,-88.75,81.0,2.73
Sabha,32,LY,1586316492,34,27.04,14.43,59.04,11.48
Birao,34,CF,1586316493,28,10.28,22.79,79.88,2.28
Devonport,1,AU,1586316494,49,-41.17,146.35,66.99,8.01
Westport,75,US,1586316478,57,41.14,-73.36,55.4,5.82
Mayo,75,US,1586316497,82,38.89,-76.51,60.01,8.52
Semenivka,0,UA,1586316498,58,52.18,32.58,43.27,13.51
Ziarat,9,PK,1586316499,17,30.38,67.73,48.94,2.19
Fonte Boa,100,BR,1586316500,96,-2.5,-66.27,73.63,5.79
Christchurch,46,NZ,1586316320,51,-43.53,172.63,61.0,16.11
Tomatlán,29,MX,1586316502,52,19.93,-105.25,74.07,9.24
Kushmurun,98,KZ,1586316504,95,52.45,64.63,27.07,14.52
Beringovskiy,5,RU,1586316505,89,63.05,179.32,13.23,2.64
Aras,90,ES,1586316506,87,42.56,-2.36,55.0,5.82
Barsovo,90,RU,1586316507,94,61.17,73.17,32.0,8.95
Onega,100,RU,1586316508,95,63.91,38.14,32.76,15.05
Puerto del Rosario,20,ES,1586316509,77,28.5,-13.86,66.2,8.05
La Mina,44,HN,1586316510,82,15.32,-87.83,75.81,1.57
Quelimane,1,MZ,1586316512,94,-17.88,36.89,77.0,4.7
Ust-Nera,87,RU,1586316513,86,64.57,143.2,20.64,7.52
Hornepayne,100,CA,1586316514,88,49.21,-84.77,33.57,4.32
Laas,0,IT,1586316515,92,46.62,10.7,42.01,1.12
Kharp,38,RU,1586316516,91,66.8,65.81,13.8,12.97
Narón,73,ES,1586316517,93,43.52,-8.15,57.0,1.12
Grand-Santi,87,GF,1586316519,95,4.25,-54.38,74.08,2.68
Santa Maria,0,BR,1586316520,66,-29.68,-53.81,55.4,2.24
Rivera,0,UY,1586316521,73,-30.91,-55.55,46.62,5.75
Whitianga,100,NZ,1586316522,66,-36.83,175.7,66.6,10.02
Ambilobe,0,MG,1586316523,90,-13.2,49.05,72.03,3.76
Padang,71,ID,1586316524,63,-0.95,100.35,86.45,0.74
La Ronge,75,CA,1586316526,85,55.1,-105.28,24.8,9.17
Zdvinsk,30,RU,1586316527,82,54.7,78.66,32.65,23.78
Sucúa,100,EC,1586316528,59,-2.47,-78.17,71.82,0.81
Baykit,76,RU,1586316529,76,61.67,96.37,42.94,3.8
Zaysan,82,KZ,1586316530,31,47.47,84.87,60.62,11.32
Chifeng,27,CN,1586316531,34,42.27,118.96,45.03,11.59
Puerto Cabello,81,VE,1586316533,90,10.47,-68.01,76.96,7.11
Umluj,0,SA,1586316534,66,25.02,37.27,74.32,10.27
Egvekinot,26,RU,1586316535,85,66.32,-179.17,-4.22,4.45
Yinchuan,40,CN,1586316536,12,38.47,106.27,67.1,8.5
Goma,99,CD,1586316537,49,-1.68,29.22,64.63,1.23
Balakhninskiy,56,RU,1586316538,69,58.01,114.28,36.5,2.01
Acaraú,61,BR,1586316539,91,-2.89,-40.12,76.96,6.49
Den Helder,90,NL,1586316261,76,52.96,4.76,51.01,6.93
Kibala,54,TD,1586316542,45,9.11,18.35,86.0,4.27
North Platte,1,US,1586316431,46,41.12,-100.77,59.0,3.36
Kyshtovka,100,RU,1586316544,89,56.55,76.63,29.91,28.07
Puerto Ayacucho,100,VE,1586316545,84,5.66,-67.62,79.59,4.32
Neiafu,75,TO,1586316546,94,-18.65,-173.98,80.6,2.24
Gencsapáti,0,HU,1586316547,74,47.28,16.6,36.0,4.5
Agirish,100,RU,1586316548,90,61.92,63.02,18.05,19.93
São Filipe,0,CV,1586316550,73,14.9,-24.5,74.64,9.71
Poum,1,NC,1586316551,75,-20.23,164.02,79.88,13.0
Colac,53,AU,1586316552,89,-38.33,143.58,61.0,3.0
Tambacounda,0,SN,1586316553,40,13.75,-13.76,87.8,11.41
Tual,76,ID,1586316554,72,-5.67,132.75,84.24,7.87
Yemtsa,100,RU,1586316555,97,63.07,40.33,30.96,6.85
Kashgar,11,CN,1586316557,11,39.45,75.98,62.6,8.95
Poções,48,BR,1586316558,79,-14.53,-40.37,66.31,1.86
Esim,72,GH,1586316559,84,4.87,-2.24,81.39,7.4
Tateyama,53,JP,1586316560,39,34.98,139.87,68.0,17.22
De-Kastri,30,RU,1586316561,90,51.47,140.78,32.49,6.42
Robe,54,AU,1586316562,66,-37.18,139.75,61.61,14.18
Kimbe,55,PG,1586316564,57,-5.55,150.14,89.37,5.53
Ngama,92,TD,1586316321,25,11.78,17.17,88.83,5.44
Jining,92,CN,1586316566,41,35.41,116.58,67.1,4.94
Hauterive,4,FR,1586316567,70,46.09,3.45,48.99,1.12
Pathein,5,MM,1586316568,49,16.78,94.73,89.08,9.17
Otofuke,20,JP,1586316569,53,42.99,143.2,51.8,6.93
Sambava,16,MG,1586316570,87,-14.27,50.17,74.91,6.87
Linjiang,97,CN,1586316572,48,41.81,126.91,43.16,8.77
Yerbogachën,0,RU,1586316573,63,61.28,108.01,41.77,4.25
Smithers,90,CA,1586316574,40,54.78,-127.17,37.4,8.05
Bairiki Village,20,KI,1586316575,70,1.33,172.98,87.8,8.05
Leh,100,IN,1586316576,24,34.17,77.58,23.97,2.93
La Crosse,90,US,1586316577,93,43.8,-91.24,54.0,3.78
Takoradze,63,GH,1586316578,84,4.88,-1.76,81.32,6.51
Victor Harbor,20,AU,1586316579,42,-35.57,138.62,68.0,9.17
Seredeyskiy,13,RU,1586316581,63,54.05,35.23,41.7,12.46
Horki,4,BY,1586316582,78,54.29,30.98,42.91,14.63
Otane,100,NZ,1586316583,85,-39.88,176.63,60.01,4.99
Vyartsilya,85,RU,1586316584,87,62.18,30.69,34.54,9.15
Melendugno,40,IT,1586316585,93,40.27,18.34,53.6,3.36
Olafsvik,0,IS,1586316586,92,64.89,-23.71,29.21,19.86
Vicuña,0,CL,1586316587,82,-30.03,-70.71,60.8,2.24
Ulety,0,RU,1586316589,39,51.36,112.48,43.99,7.92
Skierniewice,0,PL,1586316590,70,51.95,20.16,46.99,1.12
Babayurt,0,RU,1586316591,84,43.6,46.78,33.1,1.99
General Pico,2,AR,1586316592,45,-35.66,-63.76,49.93,6.89
Saint-Augustin,2,CA,1586316593,93,51.23,-58.65,15.69,6.62
Jiayuguan City,91,CN,1586316594,13,39.82,98.3,59.52,8.68
